NAME,lat,lng,index,group
北京,40.045975,116.39825,1,jing-jin-ji
天津,39.090521,117.311286,2,jing-jin-ji
石家庄,38.02655,114.505,3,jing-jin-ji
唐山,39.64495,118.182833,4,jing-jin-ji
秦皇岛,39.93616,119.6068,5,jing-jin-ji
邯郸,36.60785,114.514,6,jing-jin-ji
保定,38.876267,115.485,7,jing-jin-ji
张家口,40.81686,114.8956,8,jing-jin-ji
承德,40.96416,117.9274,9,jing-jin-ji
廊坊,39.545975,116.7295,10,jing-jin-ji
沧州,38.315767,116.871333,11,jing-jin-ji
衡水,37.7448,115.676333,12,jing-jin-ji
邢台,37.0771,114.5065,13,jing-jin-ji
太原,37.8572,112.522222,14,jing-jin-ji
呼和浩特,40.801462,111.665375,15,null
沈阳,41.808382,123.449,16,null
大连,38.94953,121.6278,17,null
长春,43.82821,125.355,18,null
哈尔滨,45.738142,126.648,19,null
上海,31.209056,121.456556,20,chang-san-jiao
南京,32.062567,118.775,21,chang-san-jiao
苏州,31.301512,120.60525,22,chang-san-jiao
南通,31.99044,120.8786,23,chang-san-jiao
连云港,34.6568,119.25825,24,chang-san-jiao
徐州,34.255843,117.215714,25,chang-san-jiao
扬州,32.3943,119.423,26,chang-san-jiao
无锡,31.568913,120.290125,27,chang-san-jiao
常州,31.787433,119.961667,28,chang-san-jiao
镇江,32.1772,119.525,29,chang-san-jiao
泰州,32.428675,119.898,30,chang-san-jiao
淮安,33.58214,119.0358,31,chang-san-jiao
盐城,33.39075,120.157,32,chang-san-jiao
宿迁,33.95565,118.281,33,chang-san-jiao
杭州,30.211173,120.081909,34,chang-san-jiao
宁波,29.867937,121.620125,35,chang-san-jiao
温州,27.99855,120.6855,36,chang-san-jiao
绍兴,30.03,120.593,37,chang-san-jiao
湖州,30.8576,120.087667,38,chang-san-jiao
嘉兴,30.6658,120.714,39,chang-san-jiao
台州,28.6258,121.356333,40,chang-san-jiao
舟山,29.990167,122.207,41,chang-san-jiao
金华,29.097667,119.660667,42,chang-san-jiao
衢州,28.960433,118.865667,43,chang-san-jiao
丽水,28.444367,119.907667,44,chang-san-jiao
合肥,31.84824,117.2478,45,chang-san-jiao
福州,26.0639,119.331333,46,null
南昌,28.692856,115.877444,48,null
济南,36.64675,116.976875,49,jing-jin-ji
青岛,36.150211,120.393,50,null
郑州,34.776689,113.652,51,jing-jin-ji
武汉,30.5396,114.2538,52,null
长沙,28.20522,112.9835,53,null
深圳,22.599273,114.163909,55,zhu-san-jiao
珠海,22.285925,113.499,56,zhu-san-jiao
佛山,22.9843,113.0655,57,zhu-san-jiao
中山,22.5168,113.4035,58,zhu-san-jiao
江门,22.578475,113.071,59,zhu-san-jiao
东莞,23.024,113.7616,60,zhu-san-jiao
惠州,22.96128,114.4178,61,zhu-san-jiao
肇庆,23.090925,112.48375,62,zhu-san-jiao
南宁,22.8033,108.321375,63,null
海口,20.00918,110.37,64,null
重庆,29.594882,106.509353,65,cheng-yu
成都,30.7064,104.014375,66,cheng-yu
昆明,25.0129,102.708286,68,null
拉萨,29.652617,91.097,69,null
西安,34.304985,108.989923,70,fen-wei
兰州,36.04752,103.8326,71,null
西宁,36.6509,101.71375,72,null
银川,38.50275,106.146167,73,null
乌鲁木齐,43.868886,87.559614,74,null
贵阳,26.3003,106.805,77,null
株洲,27.8336,113.251,78,null
湘潭,27.91585,112.7465,79,null
包头,40.627783,109.908333,80,null
鄂尔多斯,39.72498,109.902,81,null
营口,40.67465,122.223,82,null
丹东,40.119575,124.37925,83,null
盘锦,41.1167,121.971333,84,null
葫芦岛,40.7384,120.86475,85,null
泉州,24.9284,118.614,86,null
莱芜,36.214,117.693,87,null
临沂,35.0477,118.3285,88,null
德州,37.455233,116.299333,89,jing-jin-ji
聊城,36.457867,115.988333,90,jing-jin-ji
滨州,37.378333,117.995333,91,jing-jin-ji
淄博,36.734233,118.009167,92,jing-jin-ji
枣庄,34.81762,117.522,93,null
烟台,37.502817,121.374167,94,null
潍坊,36.71272,119.142,95,null
济宁,35.415433,116.590667,96,jing-jin-ji
泰安,36.188067,117.113333,97,null
日照,35.412467,119.508,98,null
威海,37.4897,122.093,99,null
东营,37.429875,118.6435,100,null
韶关,24.76842,113.6028,101,zhu-san-jiao
汕头,23.331067,116.648667,102,null
湛江,21.23675,110.391333,103,null
茂名,21.617975,110.931,104,null
梅州,24.288733,116.111,105,null
汕尾,22.785767,115.366,106,zhu-san-jiao
河源,23.746267,114.687,107,zhu-san-jiao
阳江,21.859067,111.959667,108,zhu-san-jiao
清远,23.677133,113.042,109,zhu-san-jiao
潮州,23.665033,116.632333,110,null
揭阳,23.54675,116.3655,111,null
云浮,22.936733,112.043333,112,zhu-san-jiao
玉溪,24.356933,102.539,113,null
菏泽,35.252133,115.451,114,jing-jin-ji
大同,40.097383,113.308,115,null
长治,36.18846,113.1054,116,jing-jin-ji
临汾,36.076483,111.513333,117,fen-wei
阳泉,37.8607,113.562167,118,jing-jin-ji
赤峰,42.2103,119.00775,119,null
鞍山,41.091886,123.023,120,null
抚顺,41.863283,123.910833,121,null
本溪,41.312117,123.784667,122,null
锦州,41.05882,121.1186,123,null
吉林,43.850857,126.559857,124,null
齐齐哈尔,47.30534,123.8758,125,null
牡丹江,44.5782,129.6192,126,null
大庆,46.43226,124.9672,127,null
芜湖,31.36785,118.374,128,chang-san-jiao
马鞍山,31.69678,118.5248,129,chang-san-jiao
九江,29.675713,115.998875,130,null
洛阳,34.659,112.421429,131,fen-wei
安阳,36.08646,114.368,132,jing-jin-ji
开封,34.793625,114.3355,133,jing-jin-ji
焦作,35.22085,113.23325,134,jing-jin-ji
平顶山,33.7296,113.2755,135,null
三门峡,34.79065,111.1715,136,fen-wei
宜昌,30.70758,111.3106,137,null
荆州,30.324833,112.250333,138,null
岳阳,29.403617,113.1505,139,null
常德,29.04046,111.6944,140,null
张家界,29.2332,110.48775,141,null
桂林,25.26875,110.323,142,null
北海,21.49845,109.1615,143,null
柳州,24.340317,109.431667,144,null
三亚,18.2585,109.502,145,null
绵阳,31.47535,104.733,146,cheng-yu
宜宾,28.775133,104.620333,147,cheng-yu
泸州,28.9,105.43475,149,cheng-yu
自贡,29.354725,104.755,150,cheng-yu
德阳,31.1204,104.39225,151,cheng-yu
南充,30.803067,106.086167,152,cheng-yu
遵义,27.6816,106.9156,153,null
曲靖,25.51995,103.795,154,null
咸阳,34.34795,108.714,155,fen-wei
铜川,34.987,109.00725,156,fen-wei
延安,36.6044,109.46925,157,null
宝鸡,34.354125,107.189875,158,fen-wei
渭南,34.5014,109.48125,159,fen-wei
金昌,38.521567,102.177333,160,null
嘉峪关,39.81745,98.2758,161,null
石嘴山,39.047425,106.54775,162,null
克拉玛依,45.4591,85.09716,163,null
库尔勒,41.7277,86.195467,164,null
寿光,36.8725,118.763,165,null
章丘,36.71,117.541,166,null
即墨,36.415,120.54,167,null
胶南,35.875,120.022,168,null
胶州,36.268,120.011,169,null
莱西,36.875,120.526,170,null
平度,36.7955,119.964,171,null
蓬莱,37.817,120.76,172,null
招远,37.369,120.3965,173,null
莱州,37.1785,119.95,174,null
荣成,37.1575,122.4405,175,null
文登,37.192,122.0285,176,null
乳山,36.91,121.5375,177,null
吴江,31.165667,120.643,178,null
昆山,31.3845,120.976,179,null
常熟,31.665667,120.737667,180,null
张家港,31.878,120.538,181,null
太仓,31.4375,121.1275,182,null
句容,31.955,119.163,183,null
江阴,31.916333,120.269,184,null
宜兴,31.3625,119.806,185,null
金坛,31.744,119.579,186,null
溧阳,31.3585,119.449,187,null
海门,31.896,121.1635,188,null
临安,30.23385,119.706,189,null
富阳,30.0515,119.95,190,null
义乌,29.3195,120.0655,191,null
诸暨,29.7255,120.23,192,null
瓦房店,39.621,122,193,null
信阳,32.13015,114.06125,195,null
周口,33.6215,114.65725,196,null
漳州,24.497233,117.670667,197,null
晋城,35.500583,112.846167,198,jing-jin-ji
朔州,39.34474,112.4312,199,null
晋中,37.6992,112.729,200,fen-wei
运城,35.07002,110.9934,201,fen-wei
忻州,38.454433,112.724667,202,null
吕梁,37.380467,111.359,203,fen-wei
乌海,39.675333,106.808,204,null
通辽,43.6408,122.272333,205,null
呼伦贝尔,49.21375,119.7435,206,null
巴彦淖尔,40.804867,107.462,207,null
乌兰察布,41.01515,113.114,208,null
兴安盟,46.0777,122.019667,209,null
锡林郭勒盟,43.9314,116.091,210,null
阿拉善盟,38.842967,105.699667,211,null
阜新,42.0274,121.6604,212,null
辽阳,41.2534,123.167,213,null
铁岭,42.2764,123.81525,214,null
朝阳,41.585,120.428,215,null
四平,43.172933,124.367667,216,null
辽源,42.895,125.1465,217,null
通化,41.72685,125.9425,218,null
白山,41.93125,126.4065,219,null
松原,45.126,124.841,220,null
白城,45.6232,122.8325,221,null
延边州,42.8925,129.453333,222,null
鸡西,45.2975,130.971,223,null
鹤岗,47.324325,130.2385,224,null
双鸭山,46.6278,131.1595,225,null
伊春,47.973233,129.092333,226,null
佳木斯,46.79774,130.3476,227,null
七台河,45.806,130.937667,228,null
黑河,50.247167,127.471333,229,null
绥化,46.64555,126.9785,230,null
大兴安岭地区,50.4243,124.1245,231,null
蚌埠,32.92925,117.357,232,chang-san-jiao
淮南,32.650967,116.877,233,chang-san-jiao
淮北,33.940267,116.797333,234,chang-san-jiao
铜陵,30.929617,117.809,235,chang-san-jiao
安庆,30.546425,117.0315,236,chang-san-jiao
黄山,29.903033,118.255667,237,chang-san-jiao
滁州,32.3,118.316333,238,chang-san-jiao
阜阳,32.888533,115.817667,239,chang-san-jiao
宿州,33.6357,116.978,240,chang-san-jiao
六安,31.76245,116.51475,241,chang-san-jiao
亳州,33.848,115.795,242,chang-san-jiao
池州,30.652333,117.482667,243,chang-san-jiao
宣城,30.954,118.738,244,chang-san-jiao
莆田,25.43068,119.0426,245,null
三明,26.270475,117.64675,246,null
南平,26.64825,118.156,247,null
龙岩,25.079525,117.02025,248,null
宁德,26.672133,119.519667,249,null
景德镇,29.30422,117.2242,250,null
萍乡,27.60454,113.9022,251,null
新余,27.81016,114.9628,252,null
鹰潭,28.20856,117.0132,253,null
赣州,25.86134,114.9224,254,null
吉安,27.1013,114.98825,255,null
宜春,27.79756,114.3782,256,null
抚州,27.99942,116.3362,257,null
上饶,28.448825,117.95825,258,null
鹤壁,35.794533,114.251333,259,jing-jin-ji
新乡,35.291,113.88225,260,jing-jin-ji
濮阳,35.76605,115.0405,261,jing-jin-ji
许昌,34.0128,113.815,262,null
漯河,33.570325,114.02675,263,null
南阳,32.99454,112.5296,264,null
商丘,34.41665,115.65575,265,null
驻马店,32.9893,114.009,266,null
黄石,30.20574,115.0032,267,null
十堰,32.563675,110.858,268,null
襄阳,32.07015,112.172,269,null
鄂州,30.393033,114.866667,270,null
荆门,31.0284,112.203,271,null
孝感,30.918,113.9285,272,null
黄冈,30.4632,114.8945,273,null
咸宁,29.840425,114.31325,274,null
随州,31.716367,113.379667,275,null
恩施州,30.2904,109.4865,276,null
衡阳,26.900183,112.593333,277,null
邵阳,27.25482,111.4742,278,null
益阳,28.59404,112.3612,279,null
郴州,25.82592,113.0208,280,null
永州,26.35018,111.612,281,null
怀化,27.55854,109.9786,282,null
娄底,27.72854,111.9916,283,null
湘西州,28.280067,109.689667,284,null
梧州,23.46215,111.27575,285,null
防城港,21.673433,108.347667,286,null
钦州,21.886867,108.626,287,null
贵港,23.10325,109.58525,288,null
玉林,22.653133,110.140667,289,null
百色,23.89275,106.6315,290,null
贺州,24.41235,111.5445,291,null
河池,24.700533,108.122667,292,null
来宾,23.72885,109.2225,293,null
崇左,22.39225,107.359,294,null
广元,32.437375,105.849,295,null
遂宁,30.575675,105.711,296,cheng-yu
内江,29.588475,105.05275,297,cheng-yu
乐山,29.5738,103.7605,298,cheng-yu
眉山,30.067275,103.85625,299,cheng-yu
广安,30.47628,106.6336,300,cheng-yu
达州,31.22138,107.5034,301,cheng-yu
雅安,29.99185,103.00525,302,cheng-yu
巴中,31.854325,106.75425,303,null
资阳,30.133,104.6406,304,cheng-yu
阿坝州,31.908167,102.212333,305,null
甘孜州,30.04905,101.9615,306,null
凉山州,27.8656,102.275,307,null
六盘水,26.58296,104.8644,308,null
安顺,26.247775,105.927,309,null
铜仁地区,27.7264,109.1855,310,null
毕节,27.30345,105.298,311,null
黔西南州,25.09585,104.8915,312,null
黔东南州,26.5735,107.9685,313,null
黔南州,26.2403,107.523,314,null
保山,25.12045,99.16945,315,null
昭通,27.33765,103.713,316,null
丽江,26.876133,100.228,317,null
普洱,22.79775,100.981,318,null
临沧,23.8902,100.0825,319,null
楚雄州,25.04665,101.543,320,null
红河州,23.426233,103.358,321,null
文山州,23.3743,104.2425,322,null
西双版纳州,22.0122,100.798,323,null
大理州,25.64325,100.1855,324,null
德宏州,24.4345,98.5811,325,null
怒江州,25.8492,98.85735,326,null
迪庆州,27.82265,99.706,327,null
昌都地区,31.1266,97.18065,328,null
山南地区,29.24615,91.7657,329,null
日喀则地区,29.25415,88.89035,330,null
那曲地区,31.47895,92.0581,331,null
阿里地区,32.50195,80.1028,332,null
林芝地区,29.6504,94.36485,333,null
汉中,33.100225,107.005,334,null
榆林,38.2893,109.7375,335,null
安康,32.689733,109.022,336,null
商洛,33.8612,109.9405,337,null
白银,36.54695,104.173,338,null
天水,34.497867,105.864667,339,null
武威,37.93345,102.6345,340,null
张掖,38.9428,100.4595,341,null
平凉,35.53775,106.6865,342,null
酒泉,39.7377,98.50565,343,null
庆阳,35.653067,107.653333,344,null
定西,35.58445,104.62,345,null
陇南,33.358,105.011,346,null
临夏州,35.6018,103.21,347,null
甘南州,35.0003,102.905,348,null
海东地区,36.4997,102.109,349,null
海北州,36.9639,100.905,350,null
黄南州,35.5102,102.02,351,null
海南州,36.2866,100.619,352,null
果洛州,34.4714,100.256,353,null
玉树州,33.0014,97,354,null
海西州,37.3753,97.3731,355,null
吴忠,37.973833,106.183667,356,null
中卫,37.322933,105.132333,357,null
固原,36.055,106.249667,358,null
吐鲁番地区,42.9484,89.17915,359,null
哈密地区,42.825,93.50445,360,null
昌吉州,44.065833,87.520367,361,null
博州,44.9024,82.06455,362,null
阿克苏地区,41.17845,80.2892,363,null
克州,39.7153,76.1861,364,null
喀什地区,39.481167,75.9678,365,null
和田地区,37.10825,79.9301,366,null
伊犁哈萨克州,43.925467,81.301533,367,null
塔城地区,46.7432,82.9994,368,null
阿勒泰地区,47.8781,88.12405,369,null
石河子,44.3021,86.0597,370,null
五家渠,44.1756,87.5475,371,null
攀枝花,26.567,101.723,372,null
厦门,24.5058,118.094,373,null
广州,23.1323,113.321,375,zhu-san-jiao
